[{"name":"Serres","lat":"41.092083","lon":"23.541016","bin":"1","capacity":"100","OTO":"0"},{"name":"Provatas","lat":"41.068238","lon":"23.390686","bin":"1","capacity":"100","OTO":"0"},{"name":"A. Kamila","lat":"41.058320","lon":"23.424134","bin":"1","capacity":"100","OTO":"0"},{"name":"K. Kamila","lat":"41.058320","lon":"23.424134","bin":"1","capacity":"100","OTO":"0"},{"name":"K. Mitrousi","lat":"41.058680","lon":"23.457547","bin":"1","capacity":"100","OTO":"0"},{"name":"Koumaria","lat":"41.016434","lon":"23.434656","bin":"1","capacity":"100","OTO":"0"},{"name":"Skoutari","lat":"41.020032","lon":"23.520701","bin":"1","capacity":"100","OTO":"0"},{"name":"Adelfiko","lat":"41.014645","lon":"23.457354","bin":"1","capacity":"100","OTO":"0"},{"name":"Ag. Eleni","lat":"41.003545","lon":"23.559196","bin":"1","capacity":"100","OTO":"0"},{"name":"Peponia","lat":"40.988154","lon":"23.516756","bin":"1","capacity":"100","OTO":"0"}]